[
  {
    "location": {
      "StationName": "Celje",
      "lat": 46.2447,
      "lng": 15.2525,
      "altitude": 244
    },
    "weather": [
      {
        "updatedTimestamp": 1539865800,
        "fromHour": 1539864000,
        "toHour": 1539871200,
        "temperatureC": 20,
        "pressureHPA": 989,
        "windSpeedMps": 0.8,
        "windDirectionDeg": 180,
        "symbol": "",
        "humidityPercent": 60
      }
    ]
  },
  {
    "location": {
      "StationName": "Cerklje Airport (at Krka river)",
      "lat": 45.8936,
      "lng": 15.525,
      "altitude": 154
    },
    "weather": [
      {
        "updatedTimestamp": 1539865800,
        "fromHour": 1539864000,
        "toHour": 1539871200,
        "temperatureC": 20,
        "pressureHPA": 999,
        "windSpeedMps": 0.5,
        "windDirectionDeg": 90,
        "symbol": "moderately cloudy",
        "humidityPercent": 65
      }
    ]
  },
  {
    "location": {
      "StationName": "Crnomelj",
      "lat": 45.5603,
      "lng": 15.1508,
      "altitude": 157
    },
    "weather": [
      {
        "updatedTimestamp": 1539865800,
        "fromHour": 1539864000,
        "toHour": 1539871200,
        "temperatureC": 19,
        "pressureHPA": 999,
        "windSpeedMps": 0,
        "symbol": "prevailingly cloudy",
        "humidityPercent": 71
      }
    ]
  },
  {
    "location": {
      "StationName": "Katarina",
      "lat": 46.0933,
      "lng": 14.3756,
      "altitude": 660
    },
    "weather": [
      {
        "updatedTimestamp": 1539865800,
        "fromHour": 1539864000,
        "toHour": 1539871200,
        "temperatureC": 17,
        "pressureHPA": null,
        "windSpeedMps": 0,
        "symbol": "prevailingly cloudy",
        "humidityPercent": 72
      }
    ]
  },
  {
    "location": {
      "StationName": "Kocevje",
      "lat": 45.6453,
      "lng": 14.8542,
      "altitude": 467
    },
    "weather": [
      {
        "updatedTimestamp": 1539865800,
        "fromHour": 1539864000,
        "toHour": 1539871200,
        "temperatureC": 18,
        "pressureHPA": null,
        "windSpeedMps": 0,
        "symbol": "prevailingly cloudy",
        "humidityPercent": 68
      }
    ]
  },
  {
    "location": {
      "StationName": "Kredarica",
      "lat": 46.3794,
      "lng": 13.8539,
      "altitude": 2514
    },
    "weather": [
      {
        "updatedTimestamp": 1539865800,
        "fromHour": 1539864000,
        "toHour": 1539871200,
        "temperatureC": 5,
        "pressureHPA": 753,
        "windSpeedMps": 1.6,
        "windDirectionDeg": 135,
        "symbol": "in clouds",
        "humidityPercent": 95
      }
    ]
  },
  {
    "location": {
      "StationName": "Lesce",
      "lat": 46.37,
      "lng": 14.18,
      "altitude": 515
    },
    "weather": [
      {
        "updatedTimestamp": 1539865800,
        "fromHour": 1539864000,
        "toHour": 1539871200,
        "temperatureC": 20,
        "pressureHPA": 958,
        "windSpeedMps": 1.5,
        "windDirectionDeg": 135,
        "symbol": "",
        "humidityPercent": 57
      }
    ]
  },
  {
    "location": {
      "StationName": "Lisca",
      "lat": 46.0681,
      "lng": 15.2897,
      "altitude": 943
    },
    "weather": [
      {
        "updatedTimestamp": 1539865800,
        "fromHour": 1539864000,
        "toHour": 1539871200,
        "temperatureC": 15,
        "pressureHPA": 911,
        "windSpeedMps": 1,
        "windDirectionDeg": 45,
        "symbol": "prevailingly cloudy",
        "humidityPercent": 77
      }
    ]
  },
  {
    "location": {
      "StationName": "Ljubljana",
      "lat": 46.0658,
      "lng": 14.5172,
      "altitude": 299
    },
    "weather": [
      {
        "updatedTimestamp": 1539865800,
        "fromHour": 1539864000,
        "toHour": 1539871200,
        "temperatureC": 20,
        "pressureHPA": 982,
        "windSpeedMps": 0.1,
        "symbol": "moderately cloudy",
        "humidityPercent": 64
      }
    ]
  },
  {
    "location": {
      "StationName": " Ljubljana Jože Pučnik Airport",
      "lat": 46.2178,
      "lng": 14.4775,
      "altitude": 364
    },
    "weather": [
      {
        "updatedTimestamp": 1539865800,
        "fromHour": 1539864000,
        "toHour": 1539871200,
        "temperatureC": 19,
        "pressureHPA": 973,
        "windSpeedMps": 1.2,
        "windDirectionDeg": 135,
        "symbol": "moderately cloudy",
        "humidityPercent": 63
      }
    ]
  },
  {
    "location": {
      "StationName": "Maribor Edvard Rusjan Airport",
      "lat": 46.48,
      "lng": 15.6869,
      "altitude": 264
    },
    "weather": [
      {
        "updatedTimestamp": 1539865800,
        "fromHour": 1539864000,
        "toHour": 1539871200,
        "temperatureC": 19,
        "pressureHPA": 987,
        "windSpeedMps": 1.8,
        "windDirectionDeg": 45,
        "symbol": "moderately cloudy",
        "humidityPercent": 63
      }
    ]
  },
  {
    "location": {
      "StationName": "Murska Sobota",
      "lat": 46.6525,
      "lng": 16.1961,
      "altitude": 188
    },
    "weather": [
      {
        "updatedTimestamp": 1539865800,
        "fromHour": 1539864000,
        "toHour": 1539871200,
        "temperatureC": 20,
        "pressureHPA": 996,
        "windSpeedMps": 1.1,
        "windDirectionDeg": 45,
        "symbol": "cloudy",
        "humidityPercent": 47
      }
    ]
  },
  {
    "location": {
      "StationName": "Nova Gorica",
      "lat": 45.8958,
      "lng": 13.6289,
      "altitude": 55
    },
    "weather": [
      {
        "updatedTimestamp": 1539865800,
        "fromHour": 1539864000,
        "toHour": 1539871200,
        "temperatureC": 24,
        "pressureHPA": 1009,
        "windSpeedMps": 2.8,
        "windDirectionDeg": 90,
        "symbol": "cloudy",
        "humidityPercent": 40
      }
    ]
  },
  {
    "location": {
      "StationName": "Novo Mesto",
      "lat": 45.8019,
      "lng": 15.1822,
      "altitude": 220
    },
    "weather": [
      {
        "updatedTimestamp": 1539865800,
        "fromHour": 1539864000,
        "toHour": 1539871200,
        "temperatureC": 19,
        "pressureHPA": 993,
        "windSpeedMps": 0.6,
        "windDirectionDeg": 135,
        "symbol": "prevailingly cloudy",
        "humidityPercent": 69
      }
    ]
  },
  {
    "location": {
      "StationName": "Portorož Airport",
      "lat": 45.4756,
      "lng": 13.6206,
      "altitude": 2
    },
    "weather": [
      {
        "updatedTimestamp": 1539865800,
        "fromHour": 1539864000,
        "toHour": 1539871200,
        "temperatureC": 23,
        "pressureHPA": 1015,
        "windSpeedMps": 0.9,
        "windDirectionDeg": 315,
        "symbol": "moderately cloudy",
        "humidityPercent": 50
      }
    ]
  },
  {
    "location": {
      "StationName": "Postojna",
      "lat": 45.7664,
      "lng": 14.1975,
      "altitude": 533
    },
    "weather": [
      {
        "updatedTimestamp": 1539865800,
        "fromHour": 1539864000,
        "toHour": 1539871200,
        "temperatureC": 18,
        "pressureHPA": null,
        "windSpeedMps": 2,
        "windDirectionDeg": 45,
        "symbol": "mostly clear",
        "humidityPercent": 70
      }
    ]
  },
  {
    "location": {
      "StationName": "Ratece",
      "lat": 46.4975,
      "lng": 13.7175,
      "altitude": 864
    },
    "weather": [
      {
        "updatedTimestamp": 1539865800,
        "fromHour": 1539864000,
        "toHour": 1539871200,
        "temperatureC": 18,
        "pressureHPA": 919,
        "windSpeedMps": 0.9,
        "windDirectionDeg": 135,
        "symbol": "",
        "humidityPercent": 58
      }
    ]
  },
  {
    "location": {
      "StationName": "Slovenj Gradec",
      "lat": 46.49,
      "lng": 15.1161,
      "altitude": 455
    },
    "weather": [
      {
        "updatedTimestamp": 1539865800,
        "fromHour": 1539864000,
        "toHour": 1539871200,
        "temperatureC": 18,
        "pressureHPA": null,
        "windSpeedMps": null,
        "symbol": "prevailingly cloudy",
        "humidityPercent": 70
      }
    ]
  },
  {
    "location": {
      "StationName": "Vogel",
      "lat": 46.2639,
      "lng": 13.8456,
      "altitude": 1535
    },
    "weather": [
      {
        "updatedTimestamp": 1539865800,
        "fromHour": 1539864000,
        "toHour": 1539871200,
        "temperatureC": 12,
        "pressureHPA": null,
        "windSpeedMps": 1,
        "windDirectionDeg": 45,
        "symbol": "mostly clear",
        "humidityPercent": 76
      }
    ]
  },
  {
    "location": {
      "StationName": "Vojsko",
      "lat": 46.0253,
      "lng": 13.9078,
      "altitude": 1067
    },
    "weather": [
      {
        "updatedTimestamp": 1539865800,
        "fromHour": 1539864000,
        "toHour": 1539871200,
        "temperatureC": 15,
        "pressureHPA": null,
        "windSpeedMps": 3,
        "windDirectionDeg": 0,
        "symbol": "moderately cloudy",
        "humidityPercent": 77
      }
    ]
  }
]
