[
  {
    "location": {
      "name": "Sokcho",
      "lat": 37.56829,
      "lng": 126.99778
    },
    "weather": [
      {
        "updatedTimestamp": 1539990000,
        "fromHour": 1539990000,
        "toHour": 1539993600,
        "temperatureC": 11.6,
        "cloudsPercent": 0,
        "humidityPercent": 62,
        "windSpeedMps": 1.1,
        "windDirectionDeg": 270,
        "pressureHPA": 1026,
        "symbol": "Sunny"
      }
    ]
  },
  {
    "location": {
      "name": "Bukchuncheon",
      "lat": 37.56829,
      "lng": 126.99778
    },
    "weather": [
      {
        "updatedTimestamp": 1539990000,
        "fromHour": 1539990000,
        "toHour": 1539993600,
        "temperatureC": 4.5,
        "cloudsPercent": 100,
        "humidityPercent": 97,
        "windSpeedMps": 0.9,
        "windDirectionDeg": 22.5,
        "pressureHPA": 1028.6,
        "symbol": "fog/Ice fog"
      }
    ]
  },
  {
    "location": {
      "name": "Cheorwon",
      "lat": 37.56829,
      "lng": 126.99778
    },
    "weather": [
      {
        "updatedTimestamp": 1539990000,
        "fromHour": 1539990000,
        "toHour": 1539997200,
        "temperatureC": 3.8,
        "cloudsPercent": 0,
        "humidityPercent": 97,
        "windSpeedMps": 0.1,
        "pressureHPA": 1028.6,
        "symbol": "Sunny"
      }
    ]
  },
  {
    "location": {
      "name": "Dongducheon",
      "lat": 37.93965,
      "lng": 127.06178
    },
    "weather": [
      {
        "updatedTimestamp": 1539990000,
        "fromHour": 1539990000,
        "toHour": 1539997200,
        "temperatureC": 5.2,
        "cloudsPercent": 30,
        "humidityPercent": 83,
        "windSpeedMps": 0.3,
        "pressureHPA": 1028.2,
        "symbol": "Partly Cloudy"
      }
    ]
  },
  {
    "location": {
      "name": "Paju",
      "lat": 58.33545,
      "lng": 26.3169
    },
    "weather": [
      {
        "updatedTimestamp": 1539990000,
        "fromHour": 1539990000,
        "toHour": 1539993600,
        "temperatureC": 3.5,
        "cloudsPercent": 10,
        "humidityPercent": 100,
        "windSpeedMps": 0.5,
        "windDirectionDeg": 45,
        "pressureHPA": 1028,
        "symbol": "Sunny"
      }
    ]
  },
  {
    "location": {
      "name": "Daegwallyeong",
      "lat": 37.56829,
      "lng": 126.99778
    },
    "weather": [
      {
        "updatedTimestamp": 1539990000,
        "fromHour": 1539990000,
        "toHour": 1539997200,
        "temperatureC": 0.2,
        "cloudsPercent": 0,
        "humidityPercent": 89,
        "windSpeedMps": 0.4,
        "pressureHPA": 1030.8,
        "symbol": "Sunny"
      }
    ]
  },
  {
    "location": {
      "name": "Baengnyeongdo",
      "lat": 37.56829,
      "lng": 126.99778
    },
    "weather": [
      {
        "updatedTimestamp": 1539990000,
        "fromHour": 1539990000,
        "toHour": 1539997200,
        "temperatureC": 12.2,
        "cloudsPercent": 0,
        "humidityPercent": 85,
        "windSpeedMps": 0,
        "pressureHPA": 1026,
        "symbol": "Sunny"
      }
    ]
  },
  {
    "location": {
      "name": "Bukgangneung",
      "lat": 37.56829,
      "lng": 126.99778
    },
    "weather": [
      {
        "updatedTimestamp": 1539990000,
        "fromHour": 1539990000,
        "toHour": 1539993600,
        "temperatureC": 10.6,
        "cloudsPercent": 0,
        "humidityPercent": 64,
        "windSpeedMps": 1,
        "windDirectionDeg": 180,
        "pressureHPA": 1026.2,
        "symbol": "Sunny"
      }
    ]
  },
  {
    "location": {
      "name": "Gangneung",
      "lat": 37.75587,
      "lng": 128.89615
    },
    "weather": [
      {
        "updatedTimestamp": 1539990000,
        "fromHour": 1539990000,
        "toHour": 1539993600,
        "temperatureC": 10.6,
        "cloudsPercent": 0,
        "humidityPercent": 54,
        "windSpeedMps": 3.9,
        "windDirectionDeg": 247.5,
        "pressureHPA": 1026.5,
        "symbol": "Sunny"
      }
    ]
  },
  {
    "location": {
      "name": "Donghae",
      "lat": 37.56829,
      "lng": 126.99778
    },
    "weather": [
      {
        "updatedTimestamp": 1539990000,
        "fromHour": 1539990000,
        "toHour": 1539993600,
        "temperatureC": 10.4,
        "cloudsPercent": 0,
        "humidityPercent": 70,
        "windSpeedMps": 1.9,
        "windDirectionDeg": 202.5,
        "pressureHPA": 1026.3,
        "symbol": "Sunny"
      }
    ]
  },
  {
    "location": {
      "name": "Seoul",
      "lat": 37.566,
      "lng": 126.9784
    },
    "weather": [
      {
        "updatedTimestamp": 1539990000,
        "fromHour": 1539990000,
        "toHour": 1539993600,
        "temperatureC": 7.8,
        "cloudsPercent": 0,
        "humidityPercent": 70,
        "windSpeedMps": 1.4,
        "windDirectionDeg": 45,
        "pressureHPA": 1027.3,
        "symbol": "Sunny"
      }
    ]
  },
  {
    "location": {
      "name": "Incheon",
      "lat": 37.45646,
      "lng": 126.70515
    },
    "weather": [
      {
        "updatedTimestamp": 1539990000,
        "fromHour": 1539990000,
        "toHour": 1539997200,
        "temperatureC": 9.4,
        "cloudsPercent": 0,
        "humidityPercent": 71,
        "windSpeedMps": 0.4,
        "pressureHPA": 1027,
        "symbol": "Sunny"
      }
    ]
  },
  {
    "location": {
      "name": "Wonju",
      "lat": 37.56829,
      "lng": 126.99778
    },
    "weather": [
      {
        "updatedTimestamp": 1539990000,
        "fromHour": 1539990000,
        "toHour": 1539993600,
        "temperatureC": 5.1,
        "cloudsPercent": 90,
        "humidityPercent": 93,
        "windSpeedMps": 0.9,
        "windDirectionDeg": 45,
        "pressureHPA": 1028.2,
        "symbol": "Cloudy"
      }
    ]
  },
  {
    "location": {
      "name": "Ulleungdo",
      "lat": 37.56829,
      "lng": 126.99778
    },
    "weather": [
      {
        "updatedTimestamp": 1539990000,
        "fromHour": 1539990000,
        "toHour": 1539993600,
        "temperatureC": 13,
        "cloudsPercent": 0,
        "humidityPercent": 53,
        "windSpeedMps": 1.3,
        "windDirectionDeg": 180,
        "pressureHPA": 1025.8,
        "symbol": "Sunny"
      }
    ]
  },
  {
    "location": {
      "name": "Suwon",
      "lat": 37.56829,
      "lng": 126.99778
    },
    "weather": [
      {
        "updatedTimestamp": 1539990000,
        "fromHour": 1539990000,
        "toHour": 1539997200,
        "temperatureC": 8.6,
        "cloudsPercent": 0,
        "humidityPercent": 100,
        "windSpeedMps": 0.3,
        "pressureHPA": 1027.5,
        "symbol": "Sunny"
      }
    ]
  },
  {
    "location": {
      "name": "Yeongwol",
      "lat": 37.56829,
      "lng": 126.99778
    },
    "weather": [
      {
        "updatedTimestamp": 1539990000,
        "fromHour": 1539990000,
        "toHour": 1539997200,
        "temperatureC": 5.7,
        "cloudsPercent": 90,
        "humidityPercent": 96,
        "windSpeedMps": 0.4,
        "pressureHPA": 1029.2,
        "symbol": "Cloudy"
      }
    ]
  },
  {
    "location": {
      "name": "Chungju",
      "lat": 36.97604,
      "lng": 127.94024
    },
    "weather": [
      {
        "updatedTimestamp": 1539990000,
        "fromHour": 1539990000,
        "toHour": 1539993600,
        "temperatureC": 7.2,
        "cloudsPercent": 90,
        "humidityPercent": 100,
        "windSpeedMps": 1,
        "windDirectionDeg": 270,
        "pressureHPA": 1028.6,
        "symbol": "Cloudy"
      }
    ]
  },
  {
    "location": {
      "name": "Seosan",
      "lat": 37.56829,
      "lng": 126.99778
    },
    "weather": [
      {
        "updatedTimestamp": 1539990000,
        "fromHour": 1539990000,
        "toHour": 1539997200,
        "temperatureC": 7.5,
        "cloudsPercent": 70,
        "humidityPercent": 97,
        "windSpeedMps": 0,
        "pressureHPA": 1027.2,
        "symbol": "Most Cloudy"
      }
    ]
  },
  {
    "location": {
      "name": "Uljin",
      "lat": 37.56829,
      "lng": 126.99778
    },
    "weather": [
      {
        "updatedTimestamp": 1539990000,
        "fromHour": 1539990000,
        "toHour": 1539993600,
        "temperatureC": 7.9,
        "cloudsPercent": 0,
        "humidityPercent": 80,
        "windSpeedMps": 1.9,
        "windDirectionDeg": 270,
        "pressureHPA": 1026.9,
        "symbol": "Sunny"
      }
    ]
  },
  {
    "location": {
      "name": "Cheongju",
      "lat": 36.6439,
      "lng": 127.5012
    },
    "weather": [
      {
        "updatedTimestamp": 1539990000,
        "fromHour": 1539990000,
        "toHour": 1539997200,
        "temperatureC": 7.9,
        "cloudsPercent": 0,
        "humidityPercent": 80,
        "windSpeedMps": 0.3,
        "pressureHPA": 1027.5,
        "symbol": "Sunny"
      }
    ]
  },
  {
    "location": {
      "name": "Daejeon",
      "lat": 36.32139,
      "lng": 127.41972
    },
    "weather": [
      {
        "updatedTimestamp": 1539990000,
        "fromHour": 1539990000,
        "toHour": 1539997200,
        "temperatureC": 6.7,
        "cloudsPercent": 0,
        "humidityPercent": 95,
        "windSpeedMps": 0,
        "pressureHPA": 1028,
        "symbol": "Sunny"
      }
    ]
  },
  {
    "location": {
      "name": "Chupungnyeong",
      "lat": 37.56829,
      "lng": 126.99778
    },
    "weather": [
      {
        "updatedTimestamp": 1539990000,
        "fromHour": 1539990000,
        "toHour": 1539997200,
        "temperatureC": 7.8,
        "cloudsPercent": 70,
        "humidityPercent": 81,
        "windSpeedMps": 0.4,
        "pressureHPA": 1027.4,
        "symbol": "Most Cloudy"
      }
    ]
  },
  {
    "location": {
      "name": "Andong",
      "lat": 36.56592,
      "lng": 128.725
    },
    "weather": [
      {
        "updatedTimestamp": 1539990000,
        "fromHour": 1539990000,
        "toHour": 1539993600,
        "temperatureC": 6.6,
        "cloudsPercent": 100,
        "humidityPercent": 100,
        "windSpeedMps": 1.2,
        "windDirectionDeg": 157.5,
        "pressureHPA": 1027.9,
        "symbol": "fog/Ice fog"
      }
    ]
  },
  {
    "location": {
      "name": "Sangju",
      "lat": 36.41558,
      "lng": 128.15862
    },
    "weather": [
      {
        "updatedTimestamp": 1539990000,
        "fromHour": 1539990000,
        "toHour": 1539997200,
        "temperatureC": 4.7,
        "cloudsPercent": 90,
        "humidityPercent": 97,
        "windSpeedMps": 0.2,
        "pressureHPA": 1028,
        "symbol": "Cloudy"
      }
    ]
  },
  {
    "location": {
      "name": "Pohang",
      "lat": 36.03222,
      "lng": 129.365
    },
    "weather": [
      {
        "updatedTimestamp": 1539990000,
        "fromHour": 1539990000,
        "toHour": 1539993600,
        "temperatureC": 10.8,
        "cloudsPercent": 0,
        "humidityPercent": 79,
        "windSpeedMps": 2.1,
        "windDirectionDeg": 247.5,
        "pressureHPA": 1026.9,
        "symbol": "Sunny"
      }
    ]
  },
  {
    "location": {
      "name": "Gunsan",
      "lat": 35.98177,
      "lng": 126.71602
    },
    "weather": [
      {
        "updatedTimestamp": 1539990000,
        "fromHour": 1539990000,
        "toHour": 1539997200,
        "temperatureC": 7.3,
        "cloudsPercent": 70,
        "humidityPercent": 100,
        "windSpeedMps": 0,
        "pressureHPA": 1027.3,
        "symbol": "Most Cloudy"
      }
    ]
  },
  {
    "location": {
      "name": "Daegu",
      "lat": 35.87028,
      "lng": 128.59111
    },
    "weather": [
      {
        "updatedTimestamp": 1539990000,
        "fromHour": 1539990000,
        "toHour": 1539997200,
        "temperatureC": 9.4,
        "cloudsPercent": 0,
        "humidityPercent": 85,
        "windSpeedMps": 0.1,
        "pressureHPA": 1027.3,
        "symbol": "Sunny"
      }
    ]
  },
  {
    "location": {
      "name": "Jeonju",
      "lat": 35.82194,
      "lng": 127.14889
    },
    "weather": [
      {
        "updatedTimestamp": 1539990000,
        "fromHour": 1539990000,
        "toHour": 1539993600,
        "temperatureC": 9.2,
        "cloudsPercent": 0,
        "humidityPercent": 87,
        "windSpeedMps": 1.5,
        "windDirectionDeg": 135,
        "pressureHPA": 1027.1,
        "symbol": "Sunny"
      }
    ]
  },
  {
    "location": {
      "name": "Ulsan",
      "lat": 35.53722,
      "lng": 129.31667
    },
    "weather": [
      {
        "updatedTimestamp": 1539990000,
        "fromHour": 1539990000,
        "toHour": 1539993600,
        "temperatureC": 11.6,
        "cloudsPercent": 0,
        "humidityPercent": 78,
        "windSpeedMps": 2.1,
        "windDirectionDeg": 315,
        "pressureHPA": 1026.4,
        "symbol": "Sunny"
      }
    ]
  },
  {
    "location": {
      "name": "Changwon",
      "lat": 35.22806,
      "lng": 128.68111
    },
    "weather": [
      {
        "updatedTimestamp": 1539990000,
        "fromHour": 1539990000,
        "toHour": 1539993600,
        "temperatureC": 11.3,
        "cloudsPercent": 0,
        "humidityPercent": 81,
        "windSpeedMps": 2.7,
        "windDirectionDeg": 45,
        "pressureHPA": 1026.6,
        "symbol": "Sunny"
      }
    ]
  },
  {
    "location": {
      "name": "Gwangju",
      "lat": 35.15472,
      "lng": 126.91556
    },
    "weather": [
      {
        "updatedTimestamp": 1539990000,
        "fromHour": 1539990000,
        "toHour": 1539997200,
        "temperatureC": 8.5,
        "cloudsPercent": 0,
        "humidityPercent": 86,
        "windSpeedMps": 0,
        "pressureHPA": 1027.3,
        "symbol": "Sunny"
      }
    ]
  },
  {
    "location": {
      "name": "Busan",
      "lat": 35.10278,
      "lng": 129.04028
    },
    "weather": [
      {
        "updatedTimestamp": 1539990000,
        "fromHour": 1539990000,
        "toHour": 1539997200,
        "temperatureC": 13.5,
        "cloudsPercent": 0,
        "humidityPercent": 65,
        "windSpeedMps": 0.1,
        "pressureHPA": 1026.1,
        "symbol": "Sunny"
      }
    ]
  },
  {
    "location": {
      "name": "Tongyeong",
      "lat": 37.56829,
      "lng": 126.99778
    },
    "weather": [
      {
        "updatedTimestamp": 1539990000,
        "fromHour": 1539990000,
        "toHour": 1539993600,
        "temperatureC": 11.2,
        "cloudsPercent": 0,
        "humidityPercent": 84,
        "windSpeedMps": 0.9,
        "windDirectionDeg": 337.5,
        "pressureHPA": 1026.4,
        "symbol": "Sunny"
      }
    ]
  },
  {
    "location": {
      "name": "Mokpo",
      "lat": 37.56829,
      "lng": 126.99778
    },
    "weather": [
      {
        "updatedTimestamp": 1539990000,
        "fromHour": 1539990000,
        "toHour": 1539993600,
        "temperatureC": 10.6,
        "cloudsPercent": 10,
        "humidityPercent": 76,
        "windSpeedMps": 0.9,
        "windDirectionDeg": 157.5,
        "pressureHPA": 1027,
        "symbol": "Sunny"
      }
    ]
  },
  {
    "location": {
      "name": "Yeosu",
      "lat": 34.73824,
      "lng": 127.74147
    },
    "weather": [
      {
        "updatedTimestamp": 1539990000,
        "fromHour": 1539990000,
        "toHour": 1539993600,
        "temperatureC": 13,
        "cloudsPercent": 0,
        "humidityPercent": 73,
        "windSpeedMps": 4.1,
        "windDirectionDeg": 67.5,
        "pressureHPA": 1026,
        "symbol": "Sunny"
      }
    ]
  },
  {
    "location": {
      "name": "Heuksando",
      "lat": 37.56829,
      "lng": 126.99778
    },
    "weather": [
      {
        "updatedTimestamp": 1539990000,
        "fromHour": 1539990000,
        "toHour": 1539993600,
        "temperatureC": 16.1,
        "cloudsPercent": 0,
        "humidityPercent": 61,
        "windSpeedMps": 6.2,
        "windDirectionDeg": 22.5,
        "pressureHPA": 1026.5,
        "symbol": "Sunny"
      }
    ]
  },
  {
    "location": {
      "name": "Wando",
      "lat": 37.56829,
      "lng": 126.99778
    },
    "weather": [
      {
        "updatedTimestamp": 1539990000,
        "fromHour": 1539990000,
        "toHour": 1539993600,
        "temperatureC": 12.5,
        "cloudsPercent": 0,
        "humidityPercent": 68,
        "windSpeedMps": 0.5,
        "windDirectionDeg": 157.5,
        "pressureHPA": 1026.5,
        "symbol": "Sunny"
      }
    ]
  },
  {
    "location": {
      "name": "Gochang",
      "lat": 35.40844,
      "lng": 126.55761
    },
    "weather": [
      {
        "updatedTimestamp": 1539990000,
        "fromHour": 1539990000,
        "toHour": 1539997200,
        "temperatureC": 6.9,
        "cloudsPercent": 80,
        "humidityPercent": 94,
        "windSpeedMps": 0.1,
        "pressureHPA": 1027.4,
        "symbol": "Most Cloudy"
      }
    ]
  },
  {
    "location": {
      "name": "Suncheon",
      "lat": 34.94793,
      "lng": 127.48604
    },
    "weather": [
      {
        "updatedTimestamp": 1539990000,
        "fromHour": 1539990000,
        "toHour": 1539997200,
        "temperatureC": 5.8,
        "cloudsPercent": 90,
        "humidityPercent": 100,
        "windSpeedMps": 0.2,
        "pressureHPA": 1027.1,
        "symbol": "Cloudy"
      }
    ]
  },
  {
    "location": {
      "name": "Hongseong",
      "lat": 36.59394,
      "lng": 126.66864
    },
    "weather": [
      {
        "updatedTimestamp": 1539990000,
        "fromHour": 1539990000,
        "toHour": 1539997200,
        "temperatureC": 5.9,
        "cloudsPercent": 0,
        "humidityPercent": 99,
        "windSpeedMps": 0,
        "pressureHPA": 1027.1,
        "symbol": "mist"
      }
    ]
  },
  {
    "location": {
      "name": "Jeju",
      "lat": 33.51014,
      "lng": 126.52193
    },
    "weather": [
      {
        "updatedTimestamp": 1539990000,
        "fromHour": 1539990000,
        "toHour": 1539993600,
        "temperatureC": 14.3,
        "cloudsPercent": 10,
        "humidityPercent": 70,
        "windSpeedMps": 1.8,
        "windDirectionDeg": 157.5,
        "pressureHPA": 1026.3,
        "symbol": "Sunny"
      }
    ]
  },
  {
    "location": {
      "name": "Gosan",
      "lat": 33.30006,
      "lng": 126.18814
    },
    "weather": [
      {
        "updatedTimestamp": 1539990000,
        "fromHour": 1539990000,
        "toHour": 1539993600,
        "temperatureC": 16,
        "cloudsPercent": 0,
        "humidityPercent": 71,
        "windSpeedMps": 4.4,
        "windDirectionDeg": 112.5,
        "pressureHPA": 1025.8,
        "symbol": "Sunny"
      }
    ]
  },
  {
    "location": {
      "name": "Seongsan",
      "lat": 37.56829,
      "lng": 126.99778
    },
    "weather": [
      {
        "updatedTimestamp": 1539990000,
        "fromHour": 1539990000,
        "toHour": 1539993600,
        "temperatureC": 15.1,
        "cloudsPercent": 0,
        "humidityPercent": 75,
        "windSpeedMps": 2.1,
        "windDirectionDeg": 337.5,
        "pressureHPA": 1025.9,
        "symbol": "Sunny"
      }
    ]
  },
  {
    "location": {
      "name": "Seogwipo",
      "lat": 33.26131,
      "lng": 126.61884
    },
    "weather": [
      {
        "updatedTimestamp": 1539990000,
        "fromHour": 1539990000,
        "toHour": 1539993600,
        "temperatureC": 14.3,
        "cloudsPercent": 0,
        "humidityPercent": 46,
        "windSpeedMps": 1.3,
        "windDirectionDeg": 0,
        "pressureHPA": 1025.3,
        "symbol": "Sunny"
      }
    ]
  },
  {
    "location": {
      "name": "Jinju",
      "lat": 35.19219,
      "lng": 128.083
    },
    "weather": [
      {
        "updatedTimestamp": 1539990000,
        "fromHour": 1539990000,
        "toHour": 1539997200,
        "temperatureC": 8,
        "cloudsPercent": 50,
        "humidityPercent": 83,
        "windSpeedMps": 0,
        "pressureHPA": 1027.3,
        "symbol": "Partly Cloudy"
      }
    ]
  },
  {
    "location": {
      "name": "Ganghwa",
      "lat": 37.56829,
      "lng": 126.99778
    },
    "weather": [
      {
        "updatedTimestamp": 1539990000,
        "fromHour": 1539990000,
        "toHour": 1539997200,
        "temperatureC": 9.5,
        "cloudsPercent": 40,
        "humidityPercent": 70,
        "windSpeedMps": 0.1,
        "pressureHPA": 1027.7,
        "symbol": "Partly Cloudy"
      }
    ]
  },
  {
    "location": {
      "name": "Yangpyeong",
      "lat": 37.56829,
      "lng": 126.99778
    },
    "weather": [
      {
        "updatedTimestamp": 1539990000,
        "fromHour": 1539990000,
        "toHour": 1539993600,
        "temperatureC": 4.6,
        "cloudsPercent": 80,
        "humidityPercent": 100,
        "windSpeedMps": 0.8,
        "windDirectionDeg": 135,
        "pressureHPA": 1028.3,
        "symbol": "Most Cloudy"
      }
    ]
  },
  {
    "location": {
      "name": "Icheon",
      "lat": 37.56829,
      "lng": 126.99778
    },
    "weather": [
      {
        "updatedTimestamp": 1539990000,
        "fromHour": 1539990000,
        "toHour": 1539993600,
        "temperatureC": 3.7,
        "cloudsPercent": 90,
        "humidityPercent": 97,
        "windSpeedMps": 0.5,
        "windDirectionDeg": 67.5,
        "pressureHPA": 1028.8,
        "symbol": "Cloudy"
      }
    ]
  },
  {
    "location": {
      "name": "Inje",
      "lat": 38.06525,
      "lng": 128.17412
    },
    "weather": [
      {
        "updatedTimestamp": 1539990000,
        "fromHour": 1539990000,
        "toHour": 1539993600,
        "temperatureC": 4.1,
        "cloudsPercent": 90,
        "humidityPercent": 94,
        "windSpeedMps": 2.1,
        "windDirectionDeg": 0,
        "pressureHPA": 1029.5,
        "symbol": "Cloudy"
      }
    ]
  },
  {
    "location": {
      "name": "Hongcheon",
      "lat": 37.6878,
      "lng": 127.88853
    },
    "weather": [
      {
        "updatedTimestamp": 1539990000,
        "fromHour": 1539990000,
        "toHour": 1539993600,
        "temperatureC": 3.9,
        "cloudsPercent": 90,
        "humidityPercent": 96,
        "windSpeedMps": 0.8,
        "windDirectionDeg": 135,
        "pressureHPA": 1028.9,
        "symbol": "Cloudy"
      }
    ]
  },
  {
    "location": {
      "name": "Taebaek",
      "lat": 37.56829,
      "lng": 126.99778
    },
    "weather": [
      {
        "updatedTimestamp": 1539990000,
        "fromHour": 1539990000,
        "toHour": 1539997200,
        "temperatureC": 1,
        "cloudsPercent": 0,
        "humidityPercent": 99,
        "windSpeedMps": 0.2,
        "pressureHPA": 1029.8,
        "symbol": "Sunny"
      }
    ]
  },
  {
    "location": {
      "name": "Jeongseon Gun",
      "lat": 37.37161,
      "lng": 128.65994
    },
    "weather": [
      {
        "updatedTimestamp": 1539990000,
        "fromHour": 1539990000,
        "toHour": 1539993600,
        "temperatureC": 4.3,
        "cloudsPercent": 90,
        "humidityPercent": 100,
        "windSpeedMps": 1.6,
        "windDirectionDeg": 90,
        "pressureHPA": 1030,
        "symbol": "Cloudy"
      }
    ]
  },
  {
    "location": {
      "name": "Jecheon",
      "lat": 37.13887,
      "lng": 128.22134
    },
    "weather": [
      {
        "updatedTimestamp": 1539990000,
        "fromHour": 1539990000,
        "toHour": 1539997200,
        "temperatureC": 3.4,
        "cloudsPercent": 90,
        "humidityPercent": 96,
        "windSpeedMps": 0.4,
        "pressureHPA": 1028.7,
        "symbol": "Cloudy"
      }
    ]
  },
  {
    "location": {
      "name": "Boeun",
      "lat": 37.56829,
      "lng": 126.99778
    },
    "weather": [
      {
        "updatedTimestamp": 1539990000,
        "fromHour": 1539990000,
        "toHour": 1539997200,
        "temperatureC": 2.3,
        "cloudsPercent": 90,
        "humidityPercent": 98,
        "windSpeedMps": 0.1,
        "pressureHPA": 1028.9,
        "symbol": "Cloudy"
      }
    ]
  },
  {
    "location": {
      "name": "Cheonan",
      "lat": 36.80931,
      "lng": 127.16004
    },
    "weather": [
      {
        "updatedTimestamp": 1539990000,
        "fromHour": 1539990000,
        "toHour": 1539997200,
        "temperatureC": 3.9,
        "cloudsPercent": 70,
        "humidityPercent": 93,
        "windSpeedMps": 0.2,
        "pressureHPA": 1027.9,
        "symbol": "Most Cloudy"
      }
    ]
  },
  {
    "location": {
      "name": "Boryeong",
      "lat": 37.56829,
      "lng": 126.99778
    },
    "weather": [
      {
        "updatedTimestamp": 1539990000,
        "fromHour": 1539990000,
        "toHour": 1539993600,
        "temperatureC": 9.7,
        "cloudsPercent": 10,
        "humidityPercent": 82,
        "windSpeedMps": 0.5,
        "windDirectionDeg": 45,
        "pressureHPA": 1026.2,
        "symbol": "Sunny"
      }
    ]
  },
  {
    "location": {
      "name": "Buyeo",
      "lat": 36.27995,
      "lng": 126.90936
    },
    "weather": [
      {
        "updatedTimestamp": 1539990000,
        "fromHour": 1539990000,
        "toHour": 1539993600,
        "temperatureC": 4.4,
        "cloudsPercent": 90,
        "humidityPercent": 98,
        "windSpeedMps": 0.5,
        "windDirectionDeg": 157.5,
        "pressureHPA": 1027.7,
        "symbol": "Cloudy"
      }
    ]
  },
  {
    "location": {
      "name": "Geumsan",
      "lat": 36.0955,
      "lng": 127.48392
    },
    "weather": [
      {
        "updatedTimestamp": 1539990000,
        "fromHour": 1539990000,
        "toHour": 1539993600,
        "temperatureC": 4.4,
        "cloudsPercent": 90,
        "humidityPercent": 98,
        "windSpeedMps": 0.5,
        "windDirectionDeg": 0,
        "pressureHPA": 1028.4,
        "symbol": "Cloudy"
      }
    ]
  },
  {
    "location": {
      "name": "Buan",
      "lat": 35.71914,
      "lng": 126.72928
    },
    "weather": [
      {
        "updatedTimestamp": 1539990000,
        "fromHour": 1539990000,
        "toHour": 1539997200,
        "temperatureC": 8.9,
        "cloudsPercent": 80,
        "humidityPercent": 79,
        "windSpeedMps": 0,
        "pressureHPA": 1027.5,
        "symbol": "Most Cloudy"
      }
    ]
  },
  {
    "location": {
      "name": "Imsil",
      "lat": 37.56829,
      "lng": 126.99778
    },
    "weather": [
      {
        "updatedTimestamp": 1539990000,
        "fromHour": 1539990000,
        "toHour": 1539997200,
        "temperatureC": 4.5,
        "cloudsPercent": 70,
        "humidityPercent": 93,
        "windSpeedMps": 0,
        "pressureHPA": 1028.3,
        "symbol": "Most Cloudy"
      }
    ]
  },
  {
    "location": {
      "name": "Jeongeup",
      "lat": 37.56829,
      "lng": 126.99778
    },
    "weather": [
      {
        "updatedTimestamp": 1539990000,
        "fromHour": 1539990000,
        "toHour": 1539997200,
        "temperatureC": 7.3,
        "cloudsPercent": 80,
        "humidityPercent": 99,
        "windSpeedMps": 0,
        "pressureHPA": 1027.1,
        "symbol": "Most Cloudy"
      }
    ]
  },
  {
    "location": {
      "name": "Namwon",
      "lat": 37.56829,
      "lng": 126.99778
    },
    "weather": [
      {
        "updatedTimestamp": 1539990000,
        "fromHour": 1539990000,
        "toHour": 1539997200,
        "temperatureC": 6.1,
        "cloudsPercent": 80,
        "humidityPercent": 86,
        "windSpeedMps": 0,
        "pressureHPA": 1027.8,
        "symbol": "Most Cloudy"
      }
    ]
  },
  {
    "location": {
      "name": "Jangsu",
      "lat": 35.64244,
      "lng": 127.521
    },
    "weather": [
      {
        "updatedTimestamp": 1539990000,
        "fromHour": 1539990000,
        "toHour": 1539997200,
        "temperatureC": 2.5,
        "cloudsPercent": 90,
        "humidityPercent": 95,
        "windSpeedMps": 0,
        "pressureHPA": 1029.1,
        "symbol": "Cloudy"
      }
    ]
  },
  {
    "location": {
      "name": "Gochanggun",
      "lat": 37.56829,
      "lng": 126.99778
    },
    "weather": [
      {
        "updatedTimestamp": 1539990000,
        "fromHour": 1539990000,
        "toHour": 1539997200,
        "temperatureC": 7.9,
        "cloudsPercent": 70,
        "humidityPercent": 97,
        "windSpeedMps": 0.1,
        "pressureHPA": 1026.7,
        "symbol": "Most Cloudy"
      }
    ]
  },
  {
    "location": {
      "name": "Bukchangwon",
      "lat": 37.56829,
      "lng": 126.99778
    },
    "weather": [
      {
        "updatedTimestamp": 1539990000,
        "fromHour": 1539990000,
        "toHour": 1539993600,
        "temperatureC": 10.6,
        "cloudsPercent": 90,
        "humidityPercent": 84,
        "windSpeedMps": 0.5,
        "windDirectionDeg": 270,
        "pressureHPA": 1026.8,
        "symbol": "Cloudy"
      }
    ]
  },
  {
    "location": {
      "name": "Gangjin Gun",
      "lat": 34.62455,
      "lng": 126.76534
    },
    "weather": [
      {
        "updatedTimestamp": 1539990000,
        "fromHour": 1539990000,
        "toHour": 1539993600,
        "temperatureC": 7.6,
        "cloudsPercent": 10,
        "humidityPercent": 90,
        "windSpeedMps": 1.5,
        "windDirectionDeg": 337.5,
        "pressureHPA": 1027.4,
        "symbol": "Sunny"
      }
    ]
  },
  {
    "location": {
      "name": "Jangheung",
      "lat": 34.66656,
      "lng": 126.88455
    },
    "weather": [
      {
        "updatedTimestamp": 1539990000,
        "fromHour": 1539990000,
        "toHour": 1539997200,
        "temperatureC": 7.1,
        "cloudsPercent": 70,
        "humidityPercent": 98,
        "windSpeedMps": 0,
        "pressureHPA": 1026.9,
        "symbol": "Most Cloudy"
      }
    ]
  },
  {
    "location": {
      "name": "Haenam",
      "lat": 34.56186,
      "lng": 126.59908
    },
    "weather": [
      {
        "updatedTimestamp": 1539990000,
        "fromHour": 1539990000,
        "toHour": 1539997200,
        "temperatureC": 4.8,
        "cloudsPercent": 0,
        "humidityPercent": 99,
        "windSpeedMps": 0,
        "pressureHPA": 1027.2,
        "symbol": "Sunny"
      }
    ]
  },
  {
    "location": {
      "name": "Goheung",
      "lat": 37.56829,
      "lng": 126.99778
    },
    "weather": [
      {
        "updatedTimestamp": 1539990000,
        "fromHour": 1539990000,
        "toHour": 1539997200,
        "temperatureC": 6.9,
        "cloudsPercent": 10,
        "humidityPercent": 99,
        "windSpeedMps": 0.1,
        "pressureHPA": 1026.3,
        "symbol": "Sunny"
      }
    ]
  },
  {
    "location": {
      "name": "Jindogun",
      "lat": 37.56829,
      "lng": 126.99778
    },
    "weather": [
      {
        "updatedTimestamp": 1539990000,
        "fromHour": 1539990000,
        "toHour": 1539997200,
        "temperatureC": 8.8,
        "cloudsPercent": 0,
        "humidityPercent": 93,
        "windSpeedMps": 0.2,
        "pressureHPA": 1026.1,
        "symbol": "Sunny"
      }
    ]
  },
  {
    "location": {
      "name": "Bongwhoa",
      "lat": 37.56829,
      "lng": 126.99778
    },
    "weather": [
      {
        "updatedTimestamp": 1539990000,
        "fromHour": 1539990000,
        "toHour": 1539997200,
        "temperatureC": 0.8,
        "cloudsPercent": 30,
        "humidityPercent": 98,
        "windSpeedMps": 0.2,
        "pressureHPA": 1029.3,
        "symbol": "Partly Cloudy"
      }
    ]
  },
  {
    "location": {
      "name": "Yeongju",
      "lat": 36.82297,
      "lng": 128.63303
    },
    "weather": [
      {
        "updatedTimestamp": 1539990000,
        "fromHour": 1539990000,
        "toHour": 1539997200,
        "temperatureC": 5.5,
        "cloudsPercent": 80,
        "humidityPercent": 88,
        "windSpeedMps": 0,
        "pressureHPA": 1028.1,
        "symbol": "Most Cloudy"
      }
    ]
  },
  {
    "location": {
      "name": "Mungyeong",
      "lat": 36.73722,
      "lng": 128.11034
    },
    "weather": [
      {
        "updatedTimestamp": 1539990000,
        "fromHour": 1539990000,
        "toHour": 1539993600,
        "temperatureC": 5.9,
        "cloudsPercent": 60,
        "humidityPercent": 83,
        "windSpeedMps": 0.7,
        "windDirectionDeg": 112.5,
        "pressureHPA": 1027.9,
        "symbol": "Most Cloudy"
      }
    ]
  },
  {
    "location": {
      "name": "Yeongdeok",
      "lat": 37.56829,
      "lng": 126.99778
    },
    "weather": [
      {
        "updatedTimestamp": 1539990000,
        "fromHour": 1539990000,
        "toHour": 1539993600,
        "temperatureC": 8.6,
        "cloudsPercent": 0,
        "humidityPercent": 84,
        "windSpeedMps": 2.1,
        "windDirectionDeg": 157.5,
        "pressureHPA": 1026.9,
        "symbol": "Sunny"
      }
    ]
  },
  {
    "location": {
      "name": "Uiseong",
      "lat": 37.56829,
      "lng": 126.99778
    },
    "weather": [
      {
        "updatedTimestamp": 1539990000,
        "fromHour": 1539990000,
        "toHour": 1539993600,
        "temperatureC": 4.1,
        "cloudsPercent": 90,
        "humidityPercent": 97,
        "windSpeedMps": 0.7,
        "windDirectionDeg": 0,
        "pressureHPA": 1028.2,
        "symbol": "Cloudy"
      }
    ]
  },
  {
    "location": {
      "name": "Gumi",
      "lat": 36.12372,
      "lng": 128.37613
    },
    "weather": [
      {
        "updatedTimestamp": 1539990000,
        "fromHour": 1539990000,
        "toHour": 1539997200,
        "temperatureC": 6.9,
        "cloudsPercent": 90,
        "humidityPercent": 99,
        "windSpeedMps": 0,
        "pressureHPA": 1027.9,
        "symbol": "Cloudy"
      }
    ]
  },
  {
    "location": {
      "name": "Yeongcheon",
      "lat": 35.95806,
      "lng": 128.93571
    },
    "weather": [
      {
        "updatedTimestamp": 1539990000,
        "fromHour": 1539990000,
        "toHour": 1539993600,
        "temperatureC": 4.9,
        "cloudsPercent": 90,
        "humidityPercent": 98,
        "windSpeedMps": 0.6,
        "windDirectionDeg": 90,
        "pressureHPA": 1027.6,
        "symbol": "Cloudy"
      }
    ]
  },
  {
    "location": {
      "name": "GyeongJu",
      "lat": 35.84276,
      "lng": 129.21169
    },
    "weather": [
      {
        "updatedTimestamp": 1539990000,
        "fromHour": 1539990000,
        "toHour": 1539993600,
        "temperatureC": 7.4,
        "cloudsPercent": 20,
        "humidityPercent": 97,
        "windSpeedMps": 1.5,
        "windDirectionDeg": 157.5,
        "pressureHPA": 1027.2,
        "symbol": "Sunny"
      }
    ]
  },
  {
    "location": {
      "name": "Geochang",
      "lat": 35.68195,
      "lng": 127.901
    },
    "weather": [
      {
        "updatedTimestamp": 1539990000,
        "fromHour": 1539990000,
        "toHour": 1539997200,
        "temperatureC": 3.6,
        "cloudsPercent": 60,
        "humidityPercent": 99,
        "windSpeedMps": 0,
        "pressureHPA": 1027.3,
        "symbol": "Most Cloudy"
      }
    ]
  },
  {
    "location": {
      "name": "Hapcheon",
      "lat": 37.56829,
      "lng": 126.99778
    },
    "weather": [
      {
        "updatedTimestamp": 1539990000,
        "fromHour": 1539990000,
        "toHour": 1539997200,
        "temperatureC": 4.1,
        "cloudsPercent": 70,
        "humidityPercent": 100,
        "windSpeedMps": 0,
        "pressureHPA": 1027.6,
        "symbol": "Most Cloudy"
      }
    ]
  },
  {
    "location": {
      "name": "Miryang",
      "lat": 35.49003,
      "lng": 128.74384
    },
    "weather": [
      {
        "updatedTimestamp": 1539990000,
        "fromHour": 1539990000,
        "toHour": 1539993600,
        "temperatureC": 7.1,
        "cloudsPercent": 100,
        "humidityPercent": 99,
        "windSpeedMps": 0.8,
        "windDirectionDeg": 337.5,
        "pressureHPA": 1027.2,
        "symbol": "Cloudy"
      }
    ]
  },
  {
    "location": {
      "name": "Sancheong",
      "lat": 35.40711,
      "lng": 127.87728
    },
    "weather": [
      {
        "updatedTimestamp": 1539990000,
        "fromHour": 1539990000,
        "toHour": 1539993600,
        "temperatureC": 4.2,
        "cloudsPercent": 70,
        "humidityPercent": 100,
        "windSpeedMps": 1,
        "windDirectionDeg": 292.5,
        "pressureHPA": 1028.3,
        "symbol": "Most Cloudy"
      }
    ]
  },
  {
    "location": {
      "name": "Geoje",
      "lat": 37.56829,
      "lng": 126.99778
    },
    "weather": [
      {
        "updatedTimestamp": 1539990000,
        "fromHour": 1539990000,
        "toHour": 1539997200,
        "temperatureC": 11.7,
        "cloudsPercent": 0,
        "humidityPercent": 97,
        "windSpeedMps": 0.4,
        "pressureHPA": 1026.4,
        "symbol": "Sunny"
      }
    ]
  },
  {
    "location": {
      "name": "Namhae",
      "lat": 34.82472,
      "lng": 127.90472
    },
    "weather": [
      {
        "updatedTimestamp": 1539990000,
        "fromHour": 1539990000,
        "toHour": 1539993600,
        "temperatureC": 12.7,
        "cloudsPercent": 0,
        "humidityPercent": 76,
        "windSpeedMps": 0.6,
        "windDirectionDeg": 292.5,
        "pressureHPA": 1026.9,
        "symbol": "Sunny"
      }
    ]
  }
]
